name,latitude,longitude,address,capacity
Adalogix Electronics,28.4694,-16.2542,"Calle San Antonio, 23 38001 Santa Cruz de Tenerife",100
Adalogix Tech Hub,28.2995,-16.5623,"Calle Castillo, 22, 38660 Adeje",110
Adalogix outlet,28.3212,-16.4113,"Avenida Marítima, 35, 38300 La Orotava",90
Adalogix Innovation,28.1423,-16.7539,"Calle Grande, 14, 38400 Puerto de la Cruz",10
Adalogix Depot,28.3241,-16.3748,"Calle Méndez Núñez, 47, 38300 La Laguna",400
